{"type": "FeatureCollection", "features": [{"type":"Feature","geometry":{"type":"Point","coordinates":[-73.95901,40.67109]},"properties":{"cartodb_id":1,"field_1":0,"name":"Franklin Ave & Eastern Pkwy","address":"341 Eastern Pkwy,Brooklyn, NY 11238","revenue":1321040.772}},{"type":"Feature","geometry":{"type":"Point","coordinates":[-73.96122,40.57796]},"properties":{"cartodb_id":2,"field_1":1,"name":"607 Brighton Beach Ave","address":"607 Brighton Beach Avenue,Brooklyn, NY 11235","revenue":1268080.418}},{"type":"Feature","geometry":{"type":"Point","coordinates":[-73.98976,40.61912]},"properties":{"cartodb_id":3,"field_1":2,"name":"65th St & 18th Ave","address":"6423 18th Avenue,Brooklyn, NY 11204","revenue":1248133.699}},{"type":"Feature","geometry":{"type":"Point","coordinates":[-74.02744,40.63152]},"properties":{"cartodb_id":4,"field_1":3,"name":"Bay Ridge Pkwy & 3rd Ave","address":"7419 3rd Avenue,Brooklyn, NY 11209","revenue":1185702.676}},{"type":"Feature","geometry":{"type":"Point","coordinates":[-74.00098,40.59321]},"properties":{"cartodb_id":5,"field_1":4,"name":"Caesar's Bay Shopping Center","address":"8973 Bay Parkway,Brooklyn, NY 11214","revenue":1148427.411}},{"type":"Feature","geometry":{"type":"Point","coordinates":[-73.99261,40.68849]},"properties":{"cartodb_id":6,"field_1":5,"name":"Court St & Dean St","address":"167 Court Street,Brooklyn, NY 11201","revenue":1144066.665}},{"type":"Feature","geometry":{"type":"Point","coordinates":[-73.87015,40.65315]},"properties":{"cartodb_id":7,"field_1":6,"name":"Target Gateway T-1401","address":"519 Gateway Dr,Brooklyn, NY 11239","revenue":1021083.029}},{"type":"Feature","geometry":{"type":"Point","coordinates":[-74.03313,40.61927]},"properties":{"cartodb_id":8,"field_1":7,"name":"3rd Ave & 92nd St","address":"9202 Third Avenue,Brooklyn, NY 11209","revenue":925707.3326}},{"type":"Feature","geometry":{"type":"Point","coordinates":[-73.98452,40.6915]},"properties":{"cartodb_id":9,"field_1":8,"name":"Lam Group @ Sheraton Brooklyn","address":"228 Duffield st,Brooklyn, NY 11201","revenue":765793.461}},{"type":"Feature","geometry":{"type":"Point","coordinates":[-73.94841,40.63207]},"properties":{"cartodb_id":10,"field_1":9,"name":"33-42 Hillel Place","address":"33-42 Hillel Place,Brooklyn, NY 11210","revenue":749216.3181}}]}